{
  "title": "Software Companies In Dubai",
  "query": "Software Companies In Dubai",
  "leads": [
    {
      "name": "Peniel Technology LLC",
      "address": "Office 205, NBQ Bank Building, 16th St - Khalid Bin Al Waleed Rd, Bur Dubai - Dubai, United Arab Emirates",
      "rating": 4.9,
      "reviews": 1165,
      "phone": "+971 50 961 7708",
      "website": "https://www.penieltech.com/",
      "lat": "",
      "lon": ""
    },
    {
      "name": "Gligx Web Design and Software Development Company Dubai, UAE",
      "address": "Green Land Co. LLC - Al Mozna Building, Office No - 102 Al Doha St, nr. Al Nahda Metro Station - Al Qusais - Al Qusais 1 - Dubai, United Arab Emirates",
      "rating": 4.8,
      "reviews": 54,
      "phone": "+971 4 344 7633",
      "website": "https://www.gligx.com/",
      "lat": "",
      "lon": ""
    },
    {
      "name": "FACTS Computer Software House L.L.C",
      "address": "Mohd Malik & Sons Raffa Building, Office 201 - Khalid Bin Al Waleed Rd, Al Raffa - Dubai, United Arab Emirates",
      "rating": 4.6,
      "reviews": 107,
      "phone": "+971 55 899 3902",
      "website": "https://facts.ae/?utm_source=CMBlisting&utm_medium=organic",
      "lat": "",
      "lon": ""
    },
    {
      "name": "Azinova Technologies LLC",
      "address": "The Metropolis Tower, Office 1302, Business Bay - Dubai, United Arab Emirates",
      "rating": 4.4,
      "reviews": 32,
      "phone": "+971 4 359 7674",
      "website": "http://www.azinovatechnologies.com/",
      "lat": "",
      "lon": ""
    },
    {
      "name": "Chacra Software",
      "address": "Marina Plaza, Level 29, Dubai Marina - Dubai, United Arab Emirates",
      "rating": 5,
      "reviews": 18,
      "phone": "+971 50 471 4556",
      "website": "https://www.chacrasoftware.com/",
      "lat": "",
      "lon": ""
    },
    {
      "name": "ToXSL Technologies",
      "address": "BUR DUBAI, R308 Building, near Burjuman Mall - Al Mankhool - Dubai, United Arab Emirates",
      "rating": 4.7,
      "reviews": 134,
      "phone": "+971 54 200 7788",
      "website": "https://toxsl.ae/",
      "lat": "",
      "lon": ""
    },
    {
      "name": "Coral Business Solutions",
      "address": "Platinum Business Centre, 302, Al Qusais - Dubai, United Arab Emirates",
      "rating": 4.4,
      "reviews": 121,
      "phone": "+971 50 400 7432",
      "website": "https://www.coralme.com/",
      "lat": "",
      "lon": ""
    },
    {
      "name": "Tenx Software Foundations LLC",
      "address": "Single Business Tower, Business Bay - Dubai, United Arab Emirates",
      "rating": 4.9,
      "reviews": 49,
      "phone": "+971 55 946 8090",
      "website": "https://10xsf.com/",
      "lat": "",
      "lon": ""
    },
    {
      "name": "Think Future Technologies | Software Development and Testing Company in Dubai, UAE",
      "address": "706 Emerald Mankhool 3, Mankhool - Dubai, United Arab Emirates",
      "rating": 5,
      "reviews": 4,
      "phone": "+971 52 559 6197",
      "website": "http://www.tftus.com/",
      "lat": "",
      "lon": ""
    },
    {
      "name": "TechGropse Dubai AI Mobile App Development Company in Dubai | Hire Mobile App Developers in Dubai UAE",
      "address": "Al Owais building - Office \"307, Deira - Dubai, United Arab Emirates",
      "rating": 4.9,
      "reviews": 44,
      "phone": "+971 52 798 4766",
      "website": "https://www.techgropse.com/mobile-app-development-company-dubai-uae",
      "lat": "",
      "lon": ""
    },
    {
      "name": "Hidden Brains : AI Software Development Dubai, UAE",
      "address": "The Metropolis Tower, Office No: 01, Unit 2201, 22nd Floor - Marasi Dr, Business Bay - Dubai, United Arab Emirates",
      "rating": 5,
      "reviews": 26,
      "phone": "+971 50 541 7174",
      "website": "https://www.hiddenbrains.ae/",
      "lat": "",
      "lon": ""
    },
    {
      "name": "Equinox Software Solutions: ERP, Retail, CRM, HRMS, eCommerce, Logistics",
      "address": "Bldg, Bank Street Building, 206, nr. Burjuman Metro - Bur Dubai - Dubai, United Arab Emirates",
      "rating": 4.9,
      "reviews": 90,
      "phone": "+971 50 459 9540",
      "website": "",
      "lat": "",
      "lon": ""
    },
    {
      "name": "Mass Technologies - Auto Garage Software, Auto repair Software, Auto Service Center software, Garage software",
      "address": "Suite #712, Iris Bay tower Tower, 7th floor, Business Bay - Dubai, United Arab Emirates",
      "rating": 4.8,
      "reviews": 24,
      "phone": "+971 56 954 3544",
      "website": "",
      "lat": "",
      "lon": ""
    },
    {
      "name": "ùêíùêîùêÖùêÖùêÑùêíùêÇùêéùêå - Mobile App & Software Development Company in Dubai UAE.",
      "address": "Building 14, Level 8, Business Bay - Bay Square - Dubai, United Arab Emirates",
      "rating": 5,
      "reviews": 16,
      "phone": "+971 800 0321216",
      "website": "https://www.suffescom.com/mobile-app-development-company-dubai",
      "lat": "",
      "lon": ""
    },
    {
      "name": "Start Tech",
      "address": "Souk Al Bahar, Sahaa Offices, Block C - Office 202, Downtown Dubai - Dubai, United Arab Emirates",
      "rating": 5,
      "reviews": 46,
      "phone": "+971 800 78324",
      "website": "https://start-tech.ae/",
      "lat": "",
      "lon": ""
    },
    {
      "name": "Zopreneurs - Zoho Premium Partner Dubai",
      "address": "WHITE SWAN BUILDING, Zopreneurs - Office 606, Trade Center First - Area - Dubai, United Arab Emirates",
      "rating": 5,
      "reviews": 472,
      "phone": "+971 52 470 7919",
      "website": "http://zopreneurs.com/",
      "lat": "",
      "lon": ""
    },
    {
      "name": "Topform Technologies LLC. Head Office - Dubai",
      "address": "Topform Technologies LLC, Al Quoz - Industrial Area 4 - Dubai, United Arab Emirates",
      "rating": 4.7,
      "reviews": 52,
      "phone": "+971 4 396 0302",
      "website": "http://topformtechnologies.com/",
      "lat": "",
      "lon": ""
    },
    {
      "name": "Triad Software Services",
      "address": "Apricot Towers, 601, Dubai, United Arab Emirates",
      "rating": 5,
      "reviews": 51,
      "phone": "+971 4 354 5650",
      "website": "https://www.triadme.com/",
      "lat": "",
      "lon": ""
    },
    {
      "name": "Branex UAE | Mobile App Development Company in Dubai",
      "address": "BB2, Mazaya Business Avenue, 2602, 26TH FLOOR, Dubai, United Arab Emirates",
      "rating": 4.4,
      "reviews": 82,
      "phone": "+971 4 241 7179",
      "website": "https://www.branex.ae/mobile-app-development-company/",
      "lat": "",
      "lon": ""
    },
    {
      "name": "Software Company In Dubai - Techasoft Pvt. Ltd.",
      "address": "Meena Bazar, Cosmos Lane, near Dubai Museum - Bur Dubai - Al Souq Al Kabeer - Dubai, United Arab Emirates",
      "rating": 5,
      "reviews": 3,
      "phone": "+971 50 755 7789",
      "website": "https://www.techasoft.com/software-development-company-in-dubai",
      "lat": "",
      "lon": ""
    }
  ]
}
